[
  {
    "name": "Purba Pagla High School",
    "lat": 24.9301277,
    "lng": 91.49280949999999
  },
  {
    "name": "Shiraj Uddin Ahmed Academy, Sylhet.",
    "lat": 24.8570759,
    "lng": 91.9279006
  },
  {
    "name": "Shikondorpur Alhaz Abdul Hafiz High School",
    "lat": 24.708705,
    "lng": 91.69615390000001
  },
  {
    "name": "Sha Shikondor Primary School",
    "lat": 24.7054068,
    "lng": 91.6959119
  },
  {
    "name": "Scholarshome, Pathantula Campus",
    "lat": 24.910116,
    "lng": 91.85220679999999
  },
  {
    "name": "Ramsunder Government Agragami Model High School",
    "lat": 24.8135528,
    "lng": 91.75791269999999
  },
  {
    "name": "Abdus Subhan High School",
    "lat": 24.78044169999999,
    "lng": 91.5642764
  },
  {
    "name": "Gonipur High School",
    "lat": 24.9116317,
    "lng": 91.5279685
  },
  
  {
    "name": "Abdur Rashid High School",
    "lat": 24.8892011,
    "lng": 91.474235
  },
  {
    "name": "Khairul Wara Tahfizul Quran Madrasah",
    "lat": 24.9105451,
    "lng": 91.4607187
  },
  {
    "name": "পশ্চিম সদর উচ্চ বিদ্যালয় ও কলেজ",
    "lat": 24.9105232,
    "lng": 91.74630379999999
  },
  {
    "name": "Balisree Aftab Ali Primary School",
    "lat": 24.6965516,
    "lng": 91.49905319999999
  },
  {
    "name": "Goalabazar Adarsha High School",
    "lat": 24.7024846,
    "lng": 91.73231249999999
  },
  {
    "name": "গালিমপুর সরকারি প্রাথমিক বিদ্যালয়",
    "lat": 24.6628698,
    "lng": 91.64644249999999
  },
  {
    "name": "Golmukapon Govt. Primary School",
    "lat": 24.6474417,
    "lng": 91.7163449
  },
  {
    "name": "Sunny Hill School & College",
    "lat": 24.8885922,
    "lng": 91.8895603
  },
  {
    "name": "Bonkadipur Amzad Ali High School",
    "lat": 24.6351846,
    "lng": 91.62191159999999
  },
  
  {
    "name": "Damodhar Topi Government Primary School",
    "lat": 24.926555,
    "lng": 91.4956174
  },
  {
    "name": "Purba Pagla High School",
    "lat": 24.9301277,
    "lng": 91.49280949999999
  },
  {
    "name": "Sha Shikondor Primary School",
    "lat": 24.7054068,
    "lng": 91.6959119
  },
  {
    "name": "Shikondorpur Alhaz Abdul Hafiz High School",
    "lat": 24.708705,
    "lng": 91.69615390000001
  },
  {
    "name": "Habiganj Girls High School",
    "lat": 24.3815785,
    "lng": 91.4111102
  },
  {
    "name": "Habiganj Govt High school",
    "lat": 24.3792952,
    "lng": 91.41241169999999
  },
  {
    "name": "Bangladesh Tea Research Institute High School",
    "lat": 24.2946288,
    "lng": 91.7452313
  },
  {
    "name": "টিকরিয়া সরকারি প্রাথমিক বিদ্যালয়",
    "lat": 24.2767954,
    "lng": 91.718558
  },
  {
    "name": "Moulvibazar Government High School",
    "lat": 24.4897105,
    "lng": 91.77329320000001
  },
  {
    "name": "Golmukapon Govt. Primary School",
    "lat": 24.6474417,
    "lng": 91.7163449
  },
  {
    "name": "Wahid Siddek High School",
    "lat": 24.5867803,
    "lng": 91.6346528
  },
  {
    "name": "Hiramia Girls High School",
    "lat": 24.5712743,
    "lng": 91.5138348
  },
  {
    "name": "Bonkadipur Amzad Ali High School",
    "lat": 24.6351846,
    "lng": 91.62191159999999
  },
  {
    "name": "গালিমপুর সরকারি প্রাথমিক বিদ্যালয়",
    "lat": 24.6628698,
    "lng": 91.64644249999999
  },
  {
    "name": "Kashinath Alauddin High School and College",
    "lat": 24.4875077,
    "lng": 91.7761417
  },
  {
    "name": "The Flowers KG and High School",
    "lat": 24.4814683,
    "lng": 91.77905729999999
  },
  {
    "name": "Goalabazar Adarsha High School",
    "lat": 24.7024846,
    "lng": 91.73231249999999
  },
  {
    "name": "Mashakali Government Primary School",
    "lat": 24.4497489,
    "lng": 91.3810362
  },
  {
    "name": "Dr. Ilias Academy",
    "lat": 24.5067863,
    "lng": 91.3599004
  },
  
  {
    "name": "Purba Pagla High School",
    "lat": 24.9301277,
    "lng": 91.49280949999999
  },
  {
    "name": "Damodhar Topi Government Primary School",
    "lat": 24.926555,
    "lng": 91.4956174
  },
  {
    "name": "শ্যামপুর ইউনিয়ন উচ্চ বিদ্যালয়",
    "lat": 24.8290362,
    "lng": 91.0933009
  },
  {
    "name": "Prokashnath Public High School",
    "lat": 24.7366875,
    "lng": 91.04718749999999
  },
  {
    "name": "Khaliajuri Model Government Primary School",
    "lat": 24.6915815,
    "lng": 91.1392582
  },
  {
    "name": "Gaverkanda Primary School",
    "lat": 24.965359,
    "lng": 90.89075679999999
  },
  {
    "name": "Bharatpur Government Primary School",
    "lat": 25.0248552,
    "lng": 91.24919539999999
  },
  {
    "name": "Anwarpur High School, Tahirpur Upazila, Sunamganj",
    "lat": 25.0985919,
    "lng": 91.2307065
  },
  {
    "name": "Kalmakanda Government Pilot High School",
    "lat": 25.0775963,
    "lng": 90.8879991
  },
  {
    "name": "Challish Kahania Hafiz Uddin High School",
    "lat": 24.9672013,
    "lng": 90.8002487
  },
  {
    "name": "Krishna Gobinda High School",
    "lat": 24.909462,
    "lng": 90.77690489999999
  },
  {
    "name": "Sajiura High School",
    "lat": 24.6551665,
    "lng": 90.8781806
  },
  {
    "name": "Rajur Bazar Collegiate School",
    "lat": 24.8953172,
    "lng": 90.74143769999999
  },
  {
    "name": "Shaheen School",
    "lat": 24.8805933,
    "lng": 90.73301479999999
  },
  {
    "name": "Jamila Memorial Pre-Cadet High School,Bandonal",
    "lat": 24.7210086,
    "lng": 90.7731567
  },
  {
    "name": "Anjuman Adarsh ​​Government High School",
    "lat": 24.877307,
    "lng": 90.73067669999999
  },
  {
    "name": "Netrokona High School",
    "lat": 24.88650579999999,
    "lng": 90.7268429
  },
  {
    "name": "Bandonal Government Primary School",
    "lat": 24.7161435,
    "lng": 90.7624699
  },
  {
    "name": "Parla Primary School",
    "lat": 24.86977229999999,
    "lng": 90.71084739999999
  },
  {
    "name": "ডুমদী সরকারী প্রাথমিক বিদ্যালয়",
    "lat": 24.7180382,
    "lng": 90.7509381
  }
  
  


]